[{
    "name": "Essex Street 7-Eleven",
    "address": "264 Essex Street",
    "city": "Lynn",
    "state": "MA",
    "zip_code": "01902",
    "country": "US",
    "longitude": -70.937142,
    "latitude": 42.470163,
    "id": 3561
}, {
    "name": "Nickerson Street 7-Eleven",
    "address": "9 Nickerson Street",
    "city": "Seattle",
    "state": "WA",
    "zip_code": "98109",
    "country": "US",
    "longitude": -122.357277,
    "latitude": 47.649202,
    "id": 3514
}, {
    "name": "Main Street 7-Eleven",
    "address": "1205 Main Street",
    "city": "Cuyahoga Falls",
    "state": "OH",
    "zip_code": "44221",
    "country": "US",
    "longitude": -81.484454,
    "latitude": 41.119554,
    "id": 3585
}, {
    "name": "Lake City Way Northeast 7-Eleven",
    "address": "8250 Lake City Way Northeast",
    "city": "Seattle",
    "state": "WA",
    "zip_code": "98115",
    "country": "US",
    "longitude": -122.309609,
    "latitude": 47.689031,
    "id": 3526
}, {
    "name": "East Champlost Street 7-Eleven",
    "address": "150 East Champlost Street",
    "city": "Philadelphia",
    "state": "PA",
    "zip_code": "19120",
    "country": "US",
    "longitude": -75.119031,
    "latitude": 40.040956,
    "id": 3734
}, {
    "name": "Hebron Parkway West 7-Eleven",
    "address": "1545 Hebron Parkway West",
    "city": "Carrollton",
    "state": "TX",
    "zip_code": "75010",
    "country": "US",
    "longitude": -96.933644,
    "latitude": 33.021333,
    "id": 3608
}, {
    "name": "Santa Monica Boulevard 7-Eleven",
    "address": "7950 Santa Monica Boulevard",
    "city": "West Hollywood",
    "state": "CA",
    "zip_code": "90046",
    "country": "US",
    "longitude": -118.362931,
    "latitude": 34.090488,
    "id": 3687
}, {
    "name": "North State Street 7-Eleven",
    "address": "645 North State Street",
    "city": "Chicago",
    "state": "IL",
    "zip_code": "60654",
    "country": "US",
    "longitude": -87.628012,
    "latitude": 41.893811,
    "id": 3456
}, {
    "name": "Denny Way 7-Eleven",
    "address": "362 Denny Way",
    "city": "Seattle",
    "state": "WA",
    "zip_code": "98109",
    "country": "US",
    "longitude": -122.349487,
    "latitude": 47.618805,
    "id": 3508
}, {
    "name": "North Harvard Street 7-Eleven",
    "address": "204 North Harvard Street",
    "city": "Allston",
    "state": "MA",
    "zip_code": "02134",
    "country": "US",
    "longitude": -71.129791,
    "latitude": 42.362809,
    "id": 3538
}, {
    "name": "Metcalf Avenue 7-Eleven",
    "address": "10701 Metcalf Avenue",
    "city": "Overland Park",
    "state": "KS",
    "zip_code": "66210",
    "country": "US",
    "longitude": -94.666656,
    "latitude": 38.933989,
    "id": 3751
}, {
    "name": "Washington Street 7-Eleven",
    "address": "584 Washington Street",
    "city": "Brighton",
    "state": "MA",
    "zip_code": "02135",
    "country": "US",
    "longitude": -71.165669,
    "latitude": 42.350034,
    "id": 3545
}, {
    "name": "North Western Avenue 7-Eleven",
    "address": "4631 North Western Avenue",
    "city": "Chicago",
    "state": "IL",
    "zip_code": "60625",
    "country": "US",
    "longitude": -87.688398,
    "latitude": 41.965884,
    "id": 3481
}, {
    "name": "Darrow Road 7-Eleven",
    "address": "8775 Darrow Road",
    "city": "Twinsburg",
    "state": "OH",
    "zip_code": "44087",
    "country": "US",
    "longitude": -81.439369,
    "latitude": 41.304644,
    "id": 3577
}, {
    "name": "Preston Road 7-Eleven",
    "address": "7225 Preston Road",
    "city": "Frisco",
    "state": "TX",
    "zip_code": "75034",
    "country": "US",
    "longitude": -96.805217,
    "latitude": 33.138514,
    "id": 3638
}, {
    "name": "East Gudgell Road 7-Eleven",
    "address": "16801 East Gudgell Road",
    "city": "Independence",
    "state": "MO",
    "zip_code": "64055",
    "country": "US",
    "longitude": -94.379235,
    "latitude": 39.071923,
    "id": 3740
}, {
    "name": "North Kimball Avenue 7-Eleven",
    "address": "5610 North Kimball Avenue",
    "city": "Chicago",
    "state": "IL",
    "zip_code": "60659",
    "country": "US",
    "longitude": -87.71414,
    "latitude": 41.983379,
    "id": 3452
}, {
    "name": "Pearl Road 7-Eleven",
    "address": "15 Pearl Road",
    "city": "Brunswick",
    "state": "OH",
    "zip_code": "44212",
    "country": "US",
    "longitude": -81.835634,
    "latitude": 41.275246,
    "id": 3576
}, {
    "name": "Van Brunt Boulevard 7-Eleven",
    "address": "2636 Van Brunt Boulevard",
    "city": "Kansas City",
    "state": "MO",
    "zip_code": "64127",
    "country": "US",
    "longitude": -94.520927,
    "latitude": 39.07628,
    "id": 3741
}, {
    "name": "Preston Road 7-Eleven",
    "address": "6465 Preston Road",
    "city": "Plano",
    "state": "TX",
    "zip_code": "75024",
    "country": "US",
    "longitude": -96.796958,
    "latitude": 33.060404,
    "id": 3603
}, {
    "name": "Hollywood Boulevard 7-Eleven",
    "address": "5763 Hollywood Boulevard",
    "city": "Hollywood",
    "state": "CA",
    "zip_code": "90028",
    "country": "US",
    "longitude": -118.315136,
    "latitude": 34.102007,
    "id": 3689
}, {
    "name": "North Belt Line Road 7-Eleven",
    "address": "7801 North Belt Line Road",
    "city": "Irving",
    "state": "TX",
    "zip_code": "75063",
    "country": "US",
    "longitude": -96.994015,
    "latitude": 32.912941,
    "id": 3601
}, {
    "name": "Sunset Boulevard 7-Eleven",
    "address": "5609 Sunset Boulevard",
    "city": "Los Angeles",
    "state": "CA",
    "zip_code": "90028",
    "country": "US",
    "longitude": -118.311831,
    "latitude": 34.098596,
    "id": 3705
}, {
    "name": "South Beckley Avenue 7-Eleven",
    "address": "2223 South Beckley Avenue",
    "city": "Dallas",
    "state": "TX",
    "zip_code": "75224",
    "country": "US",
    "longitude": -96.823181,
    "latitude": 32.720638,
    "id": 3604
}, {
    "name": "West Slauson Avenue 7-Eleven",
    "address": "4343 West Slauson Avenue",
    "city": "Los Angeles",
    "state": "CA",
    "zip_code": "90043",
    "country": "US",
    "longitude": -118.351347,
    "latitude": 33.989285,
    "id": 3697
}, {
    "name": "West Sandy Lake Road 7-Eleven",
    "address": "100 West Sandy Lake Road",
    "city": "Coppell",
    "state": "TX",
    "zip_code": "75019",
    "country": "US",
    "longitude": -96.994385,
    "latitude": 32.969806,
    "id": 3616
}, {
    "name": "Seaport Boulevard 7-Eleven",
    "address": "200 Seaport Boulevard",
    "city": "Boston",
    "state": "MA",
    "zip_code": "02210",
    "country": "US",
    "longitude": -71.04179,
    "latitude": 42.35027,
    "id": 3552
}, {
    "name": "Highland Avenue 7-Eleven",
    "address": "845 Highland Avenue",
    "city": "Needham",
    "state": "MA",
    "zip_code": "02494",
    "country": "US",
    "longitude": -71.235803,
    "latitude": 42.294288,
    "id": 3558
}, {
    "name": "Gus Thomasson Road 7-Eleven",
    "address": "3640 Gus Thomasson Road",
    "city": "Mesquite",
    "state": "TX",
    "zip_code": "75150",
    "country": "US",
    "longitude": -96.635229,
    "latitude": 32.814719,
    "id": 3641
}, {
    "name": "East 63rd Street 7-Eleven",
    "address": "319 East 63rd Street",
    "city": "Kansas City",
    "state": "MO",
    "zip_code": "64113",
    "country": "US",
    "longitude": -94.58413,
    "latitude": 39.013379,
    "id": 3747
}, {
    "name": "North Northgate Way 7-Eleven",
    "address": "2100 North Northgate Way",
    "city": "Seattle",
    "state": "WA",
    "zip_code": "98133",
    "country": "US",
    "longitude": -122.333764,
    "latitude": 47.709002,
    "id": 3525
}, {
    "name": "Alondra Boulevard 7-Eleven",
    "address": "10962 Alondra Boulevard",
    "city": "Norwalk",
    "state": "CA",
    "zip_code": "90650",
    "country": "US",
    "longitude": -118.100448,
    "latitude": 33.887051,
    "id": 3692
}, {
    "name": "South Prairie Avenue 7-Eleven",
    "address": "913 South Prairie Avenue",
    "city": "Inglewood",
    "state": "CA",
    "zip_code": "90301",
    "country": "US",
    "longitude": -118.344246,
    "latitude": 33.952228,
    "id": 3693
}, {
    "name": "Sunset Boulevard 7-Eleven",
    "address": "5076 Sunset Boulevard",
    "city": "Los Angeles",
    "state": "CA",
    "zip_code": "90027",
    "country": "US",
    "longitude": -118.300119,
    "latitude": 34.097865,
    "id": 3716
}, {
    "name": "West Adams Street 7-Eleven",
    "address": "318 West Adams Street",
    "city": "Chicago",
    "state": "IL",
    "zip_code": "60606",
    "country": "US",
    "longitude": -87.636106,
    "latitude": 41.879675,
    "id": 3476
}, {
    "name": "Quivira Road 7-Eleven",
    "address": "11724 Quivira Road",
    "city": "Overland Park",
    "state": "KS",
    "zip_code": "66210",
    "country": "US",
    "longitude": -94.724446,
    "latitude": 38.914669,
    "id": 3660
}, {
    "name": "Eastern Avenue 7-Eleven",
    "address": "1018 Eastern Avenue",
    "city": "Malden",
    "state": "MA",
    "zip_code": "02148",
    "country": "US",
    "longitude": -71.041261,
    "latitude": 42.430666,
    "id": 3554
}, {
    "name": "West Spring Creek Parkway 7-Eleven",
    "address": "4001 West Spring Creek Parkway",
    "city": "Plano",
    "state": "TX",
    "zip_code": "75024",
    "country": "US",
    "longitude": -96.771288,
    "latitude": 33.057135,
    "id": 3627
}, {
    "name": "North Fitzhugh Avenue 7-Eleven",
    "address": "2802 North Fitzhugh Avenue",
    "city": "Dallas",
    "state": "TX",
    "zip_code": "75204",
    "country": "US",
    "longitude": -96.786641,
    "latitude": 32.815342,
    "id": 3594
}, {
    "name": "E. 14th St. 7-Eleven",
    "address": "3601 E. 14th St.",
    "city": "Plano",
    "state": "TX",
    "zip_code": "75074",
    "country": "US",
    "longitude": -96.663993,
    "latitude": 33.014796,
    "id": 3640
}, {
    "name": "Wilshire Boulevard 7-Eleven",
    "address": "5000 Wilshire Boulevard",
    "city": "Los Angeles",
    "state": "CA",
    "zip_code": "90036",
    "country": "US",
    "longitude": -118.338661,
    "latitude": 34.061758,
    "id": 3672
}, {
    "name": "West Wilson Avenue 7-Eleven",
    "address": "1138 West Wilson Avenue",
    "city": "Chicago",
    "state": "IL",
    "zip_code": "60640",
    "country": "US",
    "longitude": -87.658989,
    "latitude": 41.965509,
    "id": 3503
}, {
    "name": "Greenville Avenue 7-Eleven",
    "address": "2120 Greenville Avenue",
    "city": "Dallas",
    "state": "TX",
    "zip_code": "75206",
    "country": "US",
    "longitude": -96.769863,
    "latitude": 32.815548,
    "id": 3637
}, {
    "name": "Broadway 7-Eleven",
    "address": "115 Broadway",
    "city": "Chelsea",
    "state": "MA",
    "zip_code": "02150",
    "country": "US",
    "longitude": -71.04116,
    "latitude": 42.388546,
    "id": 3542
}, {
    "name": "North Western Avenue 7-Eleven",
    "address": "5206 North Western Avenue",
    "city": "Chicago",
    "state": "IL",
    "zip_code": "60625",
    "country": "US",
    "longitude": -87.689726,
    "latitude": 41.976223,
    "id": 3487
}, {
    "name": "William T Morrissey Boulevard 7-Eleven",
    "address": "730 William T Morrissey Boulevard",
    "city": "Dorchester",
    "state": "MA",
    "zip_code": "02122",
    "country": "US",
    "longitude": -71.047803,
    "latitude": 42.29644,
    "id": 3532
}, {
    "name": "Erskine Way Southwest 7-Eleven",
    "address": "4812 Erskine Way Southwest",
    "city": "Seattle",
    "state": "WA",
    "zip_code": "98116",
    "country": "US",
    "longitude": -122.387096,
    "latitude": 47.558776,
    "id": 3524
}, {
    "name": "Massachusetts Avenue 7-Eleven",
    "address": "750 Massachusetts Avenue",
    "city": "Cambridge",
    "state": "MA",
    "zip_code": "02139",
    "country": "US",
    "longitude": -71.105508,
    "latitude": 42.366173,
    "id": 3533
}, {
    "name": "Independence Avenue 7-Eleven",
    "address": "1701 Independence Avenue",
    "city": "Kansas City",
    "state": "MO",
    "zip_code": "64106",
    "country": "US",
    "longitude": -94.560816,
    "latitude": 39.106393,
    "id": 3644
}, {
    "name": "Preston Road 7-Eleven",
    "address": "18008 Preston Road",
    "city": "Dallas",
    "state": "TX",
    "zip_code": "75252",
    "country": "US",
    "longitude": -96.797219,
    "latitude": 32.997858,
    "id": 3625
}, {
    "name": "Chestnut Street 7-Eleven",
    "address": "1201 Chestnut Street",
    "city": "Philadelphia",
    "state": "PA",
    "zip_code": "19107",
    "country": "US",
    "longitude": -75.16027,
    "latitude": 39.950552,
    "id": 3725
}, {
    "name": "North Dearborn Street 7-Eleven",
    "address": "200 North Dearborn Street",
    "city": "Chicago",
    "state": "IL",
    "zip_code": "60601",
    "country": "US",
    "longitude": -87.629969,
    "latitude": 41.885998,
    "id": 3478
}, {
    "name": "North Lincoln Avenue 7-Eleven",
    "address": "2710 North Lincoln Avenue",
    "city": "Chicago",
    "state": "IL",
    "zip_code": "60614",
    "country": "US",
    "longitude": -87.656904,
    "latitude": 41.930916,
    "id": 3489
}, {
    "name": "West Pico Boulevard 7-Eleven",
    "address": "2377 West Pico Boulevard",
    "city": "Los Angeles",
    "state": "CA",
    "zip_code": "90006",
    "country": "US",
    "longitude": -118.288673,
    "latitude": 34.047484,
    "id": 3698
}, {
    "name": "Jersey Street 7-Eleven",
    "address": "121 Jersey Street",
    "city": "Boston",
    "state": "MA",
    "zip_code": "02215",
    "country": "US",
    "longitude": -71.097088,
    "latitude": 42.34262,
    "id": 3543
}, {
    "name": "North Milwaukee Avenue 7-Eleven",
    "address": "1400 North Milwaukee Avenue",
    "city": "Chicago",
    "state": "IL",
    "zip_code": "60622",
    "country": "US",
    "longitude": -87.672902,
    "latitude": 41.907296,
    "id": 3475
}, {
    "name": "Rainier Avenue South 7-Eleven",
    "address": "2009 Rainier Avenue South",
    "city": "Seattle",
    "state": "WA",
    "zip_code": "98144",
    "country": "US",
    "longitude": -122.304012,
    "latitude": 47.585254,
    "id": 3513
}, {
    "name": "Walnut Hill 7-Eleven",
    "address": "9750 Walnut Hill",
    "city": "Dallas",
    "state": "TX",
    "zip_code": "75238",
    "country": "US",
    "longitude": -96.718329,
    "latitude": 32.87859,
    "id": 3599
}, {
    "name": "Merriman Road 7-Eleven",
    "address": "1614 Merriman Road",
    "city": "Akron",
    "state": "OH",
    "zip_code": "44313",
    "country": "US",
    "longitude": -81.548322,
    "latitude": 41.132524,
    "id": 3581
}, {
    "name": "East US Highway 24 7-Eleven",
    "address": "201 East US Highway 24",
    "city": "Independence",
    "state": "MO",
    "zip_code": "64050",
    "country": "US",
    "longitude": -94.412522,
    "latitude": 39.101008,
    "id": 3745
}, {
    "name": "West Irving Park Road 7-Eleven",
    "address": "7555 West Irving Park Road",
    "city": "Chicago",
    "state": "IL",
    "zip_code": "60634",
    "country": "US",
    "longitude": -87.816266,
    "latitude": 41.952548,
    "id": 3491
}, {
    "name": "Ross Avenue 7-Eleven",
    "address": "4024 Ross Avenue",
    "city": "Dallas",
    "state": "TX",
    "zip_code": "75204",
    "country": "US",
    "longitude": -96.783643,
    "latitude": 32.799445,
    "id": 3614
}, {
    "name": "North Sheffield Avenue 7-Eleven",
    "address": "3554 North Sheffield Avenue",
    "city": "Chicago",
    "state": "IL",
    "zip_code": "60657",
    "country": "US",
    "longitude": -87.654829,
    "latitude": 41.947032,
    "id": 3493
}, {
    "name": "Causeway Street 7-Eleven",
    "address": "91 Causeway Street",
    "city": "Boston",
    "state": "MA",
    "zip_code": "02114",
    "country": "US",
    "longitude": -71.062044,
    "latitude": 42.36481,
    "id": 3556
}, {
    "name": "Grandview Road 7-Eleven",
    "address": "11107 Grandview Road",
    "city": "Kansas City",
    "state": "MO",
    "zip_code": "64137",
    "country": "US",
    "longitude": -94.531779,
    "latitude": 38.924988,
    "id": 3653
}, {
    "name": "West Olympic Boulevard 7-Eleven",
    "address": "11666 West Olympic Boulevard",
    "city": "Los Angeles",
    "state": "CA",
    "zip_code": "90064",
    "country": "US",
    "longitude": -118.447276,
    "latitude": 34.034314,
    "id": 3686
}, {
    "name": "North McClurg Court 7-Eleven",
    "address": "600 North McClurg Court",
    "city": "Chicago",
    "state": "IL",
    "zip_code": "60611",
    "country": "US",
    "longitude": -87.6179,
    "latitude": 41.893074,
    "id": 3483
}, {
    "name": "West Belmont Avenue 7-Eleven",
    "address": "1153 West Belmont Avenue",
    "city": "Chicago",
    "state": "IL",
    "zip_code": "60657",
    "country": "US",
    "longitude": -87.658503,
    "latitude": 41.939542,
    "id": 3466
}, {
    "name": "Lower Wacker Place 7-Eleven",
    "address": "35 Lower Wacker Place",
    "city": "Chicago",
    "state": "IL",
    "zip_code": "60601",
    "country": "US",
    "longitude": -87.62654,
    "latitude": 41.886613,
    "id": 3505
}, {
    "name": "Reseda Boulevard 7-Eleven",
    "address": "5583 Reseda Boulevard",
    "city": "Tarzana",
    "state": "CA",
    "zip_code": "91356",
    "country": "US",
    "longitude": -118.536448,
    "latitude": 34.172199,
    "id": 3675
}, {
    "name": "Quivira Road 7-Eleven",
    "address": "11724 Quivira Road",
    "city": "Overland Park",
    "state": "KS",
    "zip_code": "66210",
    "country": "US",
    "longitude": -94.724446,
    "latitude": 38.914669,
    "id": 3750
}, {
    "name": "West 135th Street 7-Eleven",
    "address": "3300 West 135th Street",
    "city": "Hawthorne",
    "state": "CA",
    "zip_code": "90250",
    "country": "US",
    "longitude": -118.330997,
    "latitude": 33.90885,
    "id": 3712
}, {
    "name": "Southwest Admiral Way 7-Eleven",
    "address": "4312 Southwest Admiral Way",
    "city": "Seattle",
    "state": "WA",
    "zip_code": "98116",
    "country": "US",
    "longitude": -122.387411,
    "latitude": 47.581457,
    "id": 3523
}, {
    "name": "Beacon Street 7-Eleven",
    "address": "2002 Beacon Street",
    "city": "Brighton",
    "state": "MA",
    "zip_code": "02135",
    "country": "US",
    "longitude": -71.150938,
    "latitude": 42.33605,
    "id": 3559
}, {
    "name": "Greenville Avenue 7-Eleven",
    "address": "3702 Greenville Avenue",
    "city": "Dallas",
    "state": "TX",
    "zip_code": "75206",
    "country": "US",
    "longitude": -96.769755,
    "latitude": 32.832463,
    "id": 3593
}, {
    "name": "West Manchester Avenue 7-Eleven",
    "address": "5880 West Manchester Avenue",
    "city": "Los Angeles",
    "state": "CA",
    "zip_code": "90045",
    "country": "US",
    "longitude": -118.385231,
    "latitude": 33.959499,
    "id": 3664
}, {
    "name": "Zelzah 7-Eleven",
    "address": "5120 Zelzah",
    "city": "Encino",
    "state": "CA",
    "zip_code": "91316",
    "country": "US",
    "longitude": -118.521703,
    "latitude": 34.164156,
    "id": 3720
}, {
    "name": "Grandview Road 7-Eleven",
    "address": "11107 Grandview Road",
    "city": "Kansas City",
    "state": "MO",
    "zip_code": "64137",
    "country": "US",
    "longitude": -94.531779,
    "latitude": 38.924988,
    "id": 3743
}, {
    "name": "Elm Street 7-Eleven",
    "address": "2608 Elm Street",
    "city": "Dallas",
    "state": "TX",
    "zip_code": "75226",
    "country": "US",
    "longitude": -96.78617,
    "latitude": 32.783904,
    "id": 3589
}, {
    "name": "South Hampton Road 7-Eleven",
    "address": "1023 South Hampton Road",
    "city": "Dallas",
    "state": "TX",
    "zip_code": "75208",
    "country": "US",
    "longitude": -96.85714,
    "latitude": 32.7352,
    "id": 3633
}, {
    "name": "Tweedy Boulevard 7-Eleven",
    "address": "4383 Tweedy Boulevard",
    "city": "South Gate",
    "state": "CA",
    "zip_code": "90280",
    "country": "US",
    "longitude": -118.19488,
    "latitude": 33.94339,
    "id": 3709
}, {
    "name": "Lemmon Avenue 7-Eleven",
    "address": "4438 Lemmon Avenue",
    "city": "Dallas",
    "state": "TX",
    "zip_code": "75219",
    "country": "US",
    "longitude": -96.813316,
    "latitude": 32.819176,
    "id": 3590
}, {
    "name": "Ridge Avenue 7-Eleven",
    "address": "5632 Ridge Avenue",
    "city": "Philadelphia",
    "state": "PA",
    "zip_code": "19128",
    "country": "US",
    "longitude": -75.209508,
    "latitude": 40.026285,
    "id": 3733
}, {
    "name": "Bothell Everett Highway 7-Eleven",
    "address": "20801 Bothell Everett Highway",
    "city": "Bothell",
    "state": "WA",
    "zip_code": "98021",
    "country": "US",
    "longitude": -122.206917,
    "latitude": 47.808994,
    "id": 3509
}, {
    "name": "Abrams Road 7-Eleven",
    "address": "5804 Abrams Road",
    "city": "Dallas",
    "state": "TX",
    "zip_code": "75214",
    "country": "US",
    "longitude": -96.750302,
    "latitude": 32.855638,
    "id": 3630
}, {
    "name": "Centre Street 7-Eleven",
    "address": "1710 Centre Street",
    "city": "West Roxbury",
    "state": "MA",
    "zip_code": "02132",
    "country": "US",
    "longitude": -71.148992,
    "latitude": 42.286998,
    "id": 3555
}, {
    "name": "Federal Street 7-Eleven",
    "address": "2106 Federal Street",
    "city": "Camden",
    "state": "NJ",
    "zip_code": "08105",
    "country": "US",
    "longitude": -75.092624,
    "latitude": 39.945383,
    "id": 3739
}, {
    "name": "East Grand Avenue 7-Eleven",
    "address": "5550 East Grand Avenue",
    "city": "Dallas",
    "state": "TX",
    "zip_code": "75223",
    "country": "US",
    "longitude": -96.747733,
    "latitude": 32.793388,
    "id": 3618
}, {
    "name": "Coit Road 7-Eleven",
    "address": "18101 Coit Road",
    "city": "Dallas",
    "state": "TX",
    "zip_code": "75252",
    "country": "US",
    "longitude": -96.76838,
    "latitude": 32.998059,
    "id": 3600
}, {
    "name": "West Manchester Boulevard 7-Eleven",
    "address": "3018 West Manchester Boulevard",
    "city": "Inglewood",
    "state": "CA",
    "zip_code": "90305",
    "country": "US",
    "longitude": -118.325962,
    "latitude": 33.959804,
    "id": 3711
}, {
    "name": "North Lincoln Avenue 7-Eleven",
    "address": "5562 North Lincoln Avenue",
    "city": "Chicago",
    "state": "IL",
    "zip_code": "60625",
    "country": "US",
    "longitude": -87.694646,
    "latitude": 41.982422,
    "id": 3498
}, {
    "name": "Greenville Avenue 7-Eleven",
    "address": "4747 Greenville Avenue",
    "city": "Dallas",
    "state": "TX",
    "zip_code": "75206",
    "country": "US",
    "longitude": -96.770565,
    "latitude": 32.845298,
    "id": 3591
}, {
    "name": "Oak Lawn Avenue 7-Eleven",
    "address": "2529 Oak Lawn Avenue",
    "city": "Dallas",
    "state": "TX",
    "zip_code": "75219",
    "country": "US",
    "longitude": -96.813747,
    "latitude": 32.805119,
    "id": 3596
}, {
    "name": "Adams Street 7-Eleven",
    "address": "678 Adams Street",
    "city": "Quincy",
    "state": "MA",
    "zip_code": "02169",
    "country": "US",
    "longitude": -71.033636,
    "latitude": 42.255782,
    "id": 3564
}, {
    "name": "West Montrose Avenue 7-Eleven",
    "address": "1425 West Montrose Avenue",
    "city": "Chicago",
    "state": "IL",
    "zip_code": "60613",
    "country": "US",
    "longitude": -87.666019,
    "latitude": 41.961236,
    "id": 3462
}, {
    "name": "South Dearborn Street 7-Eleven",
    "address": "343 South Dearborn Street",
    "city": "Chicago",
    "state": "IL",
    "zip_code": "60604",
    "country": "US",
    "longitude": -87.629006,
    "latitude": 41.877124,
    "id": 3463
}, {
    "name": "North Western Avenue 7-Eleven",
    "address": "3801 North Western Avenue",
    "city": "Chicago",
    "state": "IL",
    "zip_code": "60618",
    "country": "US",
    "longitude": -87.687926,
    "latitude": 41.950559,
    "id": 3500
}, {
    "name": "Northeast Antioch Road 7-Eleven",
    "address": "4251 Northeast Antioch Road",
    "city": "Kansas City",
    "state": "MO",
    "zip_code": "64117",
    "country": "US",
    "longitude": -94.548537,
    "latitude": 39.17119,
    "id": 3744
}, {
    "name": "Garland Road 7-Eleven",
    "address": "10468 Garland Road",
    "city": "Dallas",
    "state": "TX",
    "zip_code": "75218",
    "country": "US",
    "longitude": -96.691124,
    "latitude": 32.842608,
    "id": 3613
}, {
    "name": "Preston Road 7-Eleven",
    "address": "1301 Preston Road",
    "city": "Plano",
    "state": "TX",
    "zip_code": "75093",
    "country": "US",
    "longitude": -96.796155,
    "latitude": 33.017315,
    "id": 3624
}, {
    "name": "Filbert Street 7-Eleven",
    "address": "1215 Filbert Street",
    "city": "Philadelphia",
    "state": "PA",
    "zip_code": "19107",
    "country": "US",
    "longitude": -75.160471,
    "latitude": 39.953286,
    "id": 3732
}, {
    "name": "Forest Lane 7-Eleven",
    "address": "10304 Forest Lane",
    "city": "Dallas",
    "state": "TX",
    "zip_code": "75243",
    "country": "US",
    "longitude": -96.707963,
    "latitude": 32.908562,
    "id": 3606
}, {
    "name": "Van Brunt Boulevard 7-Eleven",
    "address": "2636 Van Brunt Boulevard",
    "city": "Kansas City",
    "state": "MO",
    "zip_code": "64127",
    "country": "US",
    "longitude": -94.520927,
    "latitude": 39.07628,
    "id": 3651
}, {
    "name": "Beacon Street 7-Eleven",
    "address": "1441 Beacon Street",
    "city": "Brookline",
    "state": "MA",
    "zip_code": "02446",
    "country": "US",
    "longitude": -71.126443,
    "latitude": 42.340496,
    "id": 3537
}, {
    "name": "East Bannister Road 7-Eleven",
    "address": "8105 East Bannister Road",
    "city": "Kansas City",
    "state": "MO",
    "zip_code": "64134",
    "country": "US",
    "longitude": -94.494365,
    "latitude": 38.95134,
    "id": 3659
}, {
    "name": "Wilshire Boulevard 7-Eleven",
    "address": "3975 Wilshire Boulevard",
    "city": "Los Angeles",
    "state": "CA",
    "zip_code": "90010",
    "country": "US",
    "longitude": -118.313823,
    "latitude": 34.062186,
    "id": 3678
}, {
    "name": "Orange Avenue 7-Eleven",
    "address": "225 Orange Avenue",
    "city": "Long Beach",
    "state": "CA",
    "zip_code": "90802",
    "country": "US",
    "longitude": -118.177244,
    "latitude": 33.768318,
    "id": 3704
}, {
    "name": "West Manchester Boulevard 7-Eleven",
    "address": "1117 West Manchester Boulevard",
    "city": "Inglewood",
    "state": "CA",
    "zip_code": "90301",
    "country": "US",
    "longitude": -118.375813,
    "latitude": 33.960106,
    "id": 3710
}, {
    "name": "West Century Boulevard 7-Eleven",
    "address": "3311 West Century Boulevard",
    "city": "Inglewood",
    "state": "CA",
    "zip_code": "90303",
    "country": "US",
    "longitude": -118.329642,
    "latitude": 33.946172,
    "id": 3718
}, {
    "name": "Queen Anne Avenue North 7-Eleven",
    "address": "1607 Queen Anne Avenue North",
    "city": "Seattle",
    "state": "WA",
    "zip_code": "98109",
    "country": "US",
    "longitude": -122.357482,
    "latitude": 47.633938,
    "id": 3515
}, {
    "name": "Commonwealth Avenue 7-Eleven",
    "address": "532 Commonwealth Avenue",
    "city": "Boston",
    "state": "MA",
    "zip_code": "02215",
    "country": "US",
    "longitude": -71.096339,
    "latitude": 42.348454,
    "id": 3535
}, {
    "name": "Texas 356 7-Eleven",
    "address": "1600 Texas 356",
    "city": "Irving",
    "state": "TX",
    "zip_code": "75060",
    "country": "US",
    "longitude": -96.925224,
    "latitude": 32.808818,
    "id": 3643
}, {
    "name": "Mayfield Road 7-Eleven",
    "address": "6680 Mayfield Road",
    "city": "Mayfield Heights",
    "state": "OH",
    "zip_code": "44124",
    "country": "US",
    "longitude": -81.438084,
    "latitude": 41.519582,
    "id": 3570
}, {
    "name": "North Plano Road 7-Eleven",
    "address": "1602 North Plano Road",
    "city": "Richardson",
    "state": "TX",
    "zip_code": "75081",
    "country": "US",
    "longitude": -96.699242,
    "latitude": 32.968233,
    "id": 3620
}, {
    "name": "Technology Square 7-Eleven",
    "address": "600 Technology Square",
    "city": "Cambridge",
    "state": "MA",
    "zip_code": "02139",
    "country": "US",
    "longitude": -71.09342,
    "latitude": 42.363119,
    "id": 3534
}, {
    "name": "Silver Lake Boulevard 7-Eleven",
    "address": "1647 Silver Lake Boulevard",
    "city": "Los Angeles",
    "state": "CA",
    "zip_code": "90026",
    "country": "US",
    "longitude": -118.268879,
    "latitude": 34.089232,
    "id": 3685
}, {
    "name": "South 47th Street 7-Eleven",
    "address": "2924 South 47th Street",
    "city": "Kansas City",
    "state": "KS",
    "zip_code": "66106",
    "country": "US",
    "longitude": -94.68682,
    "latitude": 39.049101,
    "id": 3742
}, {
    "name": "Marsh Lane 7-Eleven",
    "address": "14400 Marsh Lane",
    "city": "Addison",
    "state": "TX",
    "zip_code": "75001",
    "country": "US",
    "longitude": -96.855295,
    "latitude": 32.940244,
    "id": 3612
}, {
    "name": "West Pico Boulevard 7-Eleven",
    "address": "5962 West Pico Boulevard",
    "city": "Los Angeles",
    "state": "CA",
    "zip_code": "90035",
    "country": "US",
    "longitude": -118.369734,
    "latitude": 34.051733,
    "id": 3673
}, {
    "name": "West Fullerton Avenue 7-Eleven",
    "address": "1349 West Fullerton Avenue",
    "city": "Chicago",
    "state": "IL",
    "zip_code": "60614",
    "country": "US",
    "longitude": -87.662295,
    "latitude": 41.924881,
    "id": 3451
}, {
    "name": "Gus Thomasson Road 7-Eleven",
    "address": "4901 Gus Thomasson Road",
    "city": "Mesquite",
    "state": "TX",
    "zip_code": "75150",
    "country": "US",
    "longitude": -96.654728,
    "latitude": 32.830148,
    "id": 3610
}, {
    "name": "West Commerce Street 7-Eleven",
    "address": "1295 West Commerce Street",
    "city": "Dallas",
    "state": "TX",
    "zip_code": "75208",
    "country": "US",
    "longitude": -96.80101,
    "latitude": 32.779796,
    "id": 3595
}, {
    "name": "West 9th Street 7-Eleven",
    "address": "835 West 9th Street",
    "city": "Dallas",
    "state": "TX",
    "zip_code": "75208",
    "country": "US",
    "longitude": -96.837145,
    "latitude": 32.746646,
    "id": 3636
}, {
    "name": "Santa Monica Boulevard 7-Eleven",
    "address": "1600 Santa Monica Boulevard",
    "city": "Santa Monica",
    "state": "CA",
    "zip_code": "90404",
    "country": "US",
    "longitude": -118.483252,
    "latitude": 34.025472,
    "id": 3682
}, {
    "name": "Northeast 50th Street 7-Eleven",
    "address": "101 Northeast 50th Street",
    "city": "Seattle",
    "state": "WA",
    "zip_code": "98105",
    "country": "US",
    "longitude": -122.327987,
    "latitude": 47.664787,
    "id": 3517
}, {
    "name": "Venice Boulevard 7-Eleven",
    "address": "10356 Venice Boulevard",
    "city": "Culver City",
    "state": "CA",
    "zip_code": "90232",
    "country": "US",
    "longitude": -118.403442,
    "latitude": 34.020153,
    "id": 3683
}, {
    "name": "West Manchester Boulevard 7-Eleven",
    "address": "345 West Manchester Boulevard",
    "city": "Inglewood",
    "state": "CA",
    "zip_code": "90301",
    "country": "US",
    "longitude": -118.361416,
    "latitude": 33.962012,
    "id": 3714
}, {
    "name": "Dartmouth Street 7-Eleven",
    "address": "261 Dartmouth Street",
    "city": "Boston",
    "state": "MA",
    "zip_code": "02116",
    "country": "US",
    "longitude": -71.077377,
    "latitude": 42.350475,
    "id": 3529
}, {
    "name": "North Milwaukee Avenue 7-Eleven",
    "address": "2401 North Milwaukee Avenue",
    "city": "Chicago",
    "state": "IL",
    "zip_code": "60647",
    "country": "US",
    "longitude": -87.700435,
    "latitude": 41.924992,
    "id": 3477
}, {
    "name": "North Michigan Avenue 7-Eleven",
    "address": "174 North Michigan Avenue",
    "city": "Chicago",
    "state": "IL",
    "zip_code": "60601",
    "country": "US",
    "longitude": -87.624818,
    "latitude": 41.885287,
    "id": 3459
}, {
    "name": "Avalon Boulevard 7-Eleven",
    "address": "17920 Avalon Boulevard",
    "city": "Carson",
    "state": "CA",
    "zip_code": "90746",
    "country": "US",
    "longitude": -118.265712,
    "latitude": 33.867521,
    "id": 3723
}, {
    "name": "East Madison Street 7-Eleven",
    "address": "29 East Madison Street",
    "city": "Chicago",
    "state": "IL",
    "zip_code": "60602",
    "country": "US",
    "longitude": -87.626572,
    "latitude": 41.881909,
    "id": 3448
}, {
    "name": "Washington Street 7-Eleven",
    "address": "95 Washington Street",
    "city": "Norwell",
    "state": "MA",
    "zip_code": "02061",
    "country": "US",
    "longitude": -70.878036,
    "latitude": 42.171997,
    "id": 3566
}, {
    "name": "Routh Street 7-Eleven",
    "address": "1722 Routh Street",
    "city": "Dallas",
    "state": "TX",
    "zip_code": "75201",
    "country": "US",
    "longitude": -96.795854,
    "latitude": 32.791846,
    "id": 3586
}, {
    "name": "Belt Line Road 7-Eleven",
    "address": "4900 Belt Line Road",
    "city": "Dallas",
    "state": "TX",
    "zip_code": "75254",
    "country": "US",
    "longitude": -96.827824,
    "latitude": 32.95355,
    "id": 3628
}, {
    "name": "North Broadway Street 7-Eleven",
    "address": "3700 North Broadway Street",
    "city": "Chicago",
    "state": "IL",
    "zip_code": "60613",
    "country": "US",
    "longitude": -87.648718,
    "latitude": 41.949288,
    "id": 3499
}, {
    "name": "South Parker Street 7-Eleven",
    "address": "951 South Parker Street",
    "city": "Olathe",
    "state": "KS",
    "zip_code": "66061",
    "country": "US",
    "longitude": -94.834862,
    "latitude": 38.869391,
    "id": 3663
}, {
    "name": "Royalton Road 7-Eleven",
    "address": "16625 Royalton Road",
    "city": "Strongsville",
    "state": "OH",
    "zip_code": "44136",
    "country": "US",
    "longitude": -81.815789,
    "latitude": 41.312544,
    "id": 3571
}, {
    "name": "Bustleton Avenue 7-Eleven",
    "address": "6800 Bustleton Avenue",
    "city": "Philadelphia",
    "state": "PA",
    "zip_code": "19149",
    "country": "US",
    "longitude": -75.065633,
    "latitude": 40.040916,
    "id": 3726
}, {
    "name": "North Milwaukee Avenue 7-Eleven",
    "address": "5316 North Milwaukee Avenue",
    "city": "Chicago",
    "state": "IL",
    "zip_code": "60630",
    "country": "US",
    "longitude": -87.769731,
    "latitude": 41.976554,
    "id": 3484
}, {
    "name": "West Pratt Boulevard 7-Eleven",
    "address": "1404 West Pratt Boulevard",
    "city": "Chicago",
    "state": "IL",
    "zip_code": "60626",
    "country": "US",
    "longitude": -87.66621,
    "latitude": 42.005865,
    "id": 3496
}, {
    "name": "Southwest Avalon Way 7-Eleven",
    "address": "3280 Southwest Avalon Way",
    "city": "Seattle",
    "state": "WA",
    "zip_code": "98126",
    "country": "US",
    "longitude": -122.375749,
    "latitude": 47.564442,
    "id": 3512
}, {
    "name": "North Town East Boulevard 7-Eleven",
    "address": "3801 North Town East Boulevard",
    "city": "Mesquite",
    "state": "TX",
    "zip_code": "75150",
    "country": "US",
    "longitude": -96.653653,
    "latitude": 32.796175,
    "id": 3598
}, {
    "name": "16th Street 7-Eleven",
    "address": "6603 16th Street",
    "city": "Berwyn",
    "state": "IL",
    "zip_code": "60402",
    "country": "US",
    "longitude": -87.789133,
    "latitude": 41.85823,
    "id": 3486
}, {
    "name": "West Washington Boulevard 7-Eleven",
    "address": "550 West Washington Boulevard",
    "city": "Chicago",
    "state": "IL",
    "zip_code": "60661",
    "country": "US",
    "longitude": -87.641511,
    "latitude": 41.883419,
    "id": 3457
}, {
    "name": "South 10th Street 7-Eleven",
    "address": "2101 South 10th Street",
    "city": "Philadelphia",
    "state": "PA",
    "zip_code": "19148",
    "country": "US",
    "longitude": -75.162723,
    "latitude": 39.923302,
    "id": 3731
}, {
    "name": "North Damen Avenue 7-Eleven",
    "address": "2010 North Damen Avenue",
    "city": "Chicago",
    "state": "IL",
    "zip_code": "60647",
    "country": "US",
    "longitude": -87.677831,
    "latitude": 41.918249,
    "id": 3473
}, {
    "name": "North Kedzie Avenue 7-Eleven",
    "address": "3800 North Kedzie Avenue",
    "city": "Chicago",
    "state": "IL",
    "zip_code": "60618",
    "country": "US",
    "longitude": -87.708415,
    "latitude": 41.950575,
    "id": 3497
}, {
    "name": "Lynn Street 7-Eleven",
    "address": "100 Lynn Street",
    "city": "Peabody",
    "state": "MA",
    "zip_code": "01960",
    "country": "US",
    "longitude": -70.947072,
    "latitude": 42.511299,
    "id": 3563
}, {
    "name": "East India Row 7-Eleven",
    "address": "70 East India Row",
    "city": "Boston",
    "state": "MA",
    "zip_code": "02110",
    "country": "US",
    "longitude": -71.051169,
    "latitude": 42.35864,
    "id": 3528
}, {
    "name": "North Western Avenue 7-Eleven",
    "address": "6001 North Western Avenue",
    "city": "Chicago",
    "state": "IL",
    "zip_code": "60659",
    "country": "US",
    "longitude": -87.689248,
    "latitude": 41.990894,
    "id": 3504
}, {
    "name": "East US Highway 24 7-Eleven",
    "address": "201 East US Highway 24",
    "city": "Independence",
    "state": "MO",
    "zip_code": "64050",
    "country": "US",
    "longitude": -94.412522,
    "latitude": 39.101008,
    "id": 3655
}, {
    "name": "Santa Monica Boulevard 7-Eleven",
    "address": "4460 Santa Monica Boulevard",
    "city": "Los Angeles",
    "state": "CA",
    "zip_code": "90029",
    "country": "US",
    "longitude": -118.286289,
    "latitude": 34.090628,
    "id": 3719
}, {
    "name": "West 3rd Street 7-Eleven",
    "address": "6077 West 3rd Street",
    "city": "Los Angeles",
    "state": "CA",
    "zip_code": "90036",
    "country": "US",
    "longitude": -118.352975,
    "latitude": 34.070668,
    "id": 3665
}, {
    "name": "Clay Mathis Road 7-Eleven",
    "address": "502 Clay Mathis Road",
    "city": "Mesquite",
    "state": "TX",
    "zip_code": "75181",
    "country": "US",
    "longitude": -96.561031,
    "latitude": 32.759982,
    "id": 3626
}, {
    "name": "East 151st Street 7-Eleven",
    "address": "2151 East 151st Street",
    "city": "Olathe",
    "state": "KS",
    "zip_code": "66062",
    "country": "US",
    "longitude": -94.780297,
    "latitude": 38.854339,
    "id": 3662
}, {
    "name": "West Jackson Boulevard 7-Eleven",
    "address": "216 West Jackson Boulevard",
    "city": "Chicago",
    "state": "IL",
    "zip_code": "60606",
    "country": "US",
    "longitude": -87.634392,
    "latitude": 41.87827,
    "id": 3453
}, {
    "name": "Highland Road 7-Eleven",
    "address": "316 Highland Road",
    "city": "Macedonia",
    "state": "OH",
    "zip_code": "44056",
    "country": "US",
    "longitude": -81.513918,
    "latitude": 41.298664,
    "id": 3574
}, {
    "name": "Gaston Avenue 7-Eleven",
    "address": "4104 Gaston Avenue",
    "city": "Dallas",
    "state": "TX",
    "zip_code": "75246",
    "country": "US",
    "longitude": -96.776327,
    "latitude": 32.793965,
    "id": 3588
}, {
    "name": "Southwest Oldham Parkway 7-Eleven 7-Eleven",
    "address": "909 Southwest Oldham Parkway 7-Eleven",
    "city": "Lee's Summit",
    "state": "MO",
    "zip_code": "64081",
    "country": "US",
    "longitude": -94.394884,
    "latitude": 38.909853,
    "id": 3648
}, {
    "name": "West Century Boulevard 7-Eleven",
    "address": "4956 West Century Boulevard",
    "city": "Inglewood",
    "state": "CA",
    "zip_code": "90304",
    "country": "US",
    "longitude": -118.36551,
    "latitude": 33.944902,
    "id": 3706
}, {
    "name": "148th Avenue Northeast 7-Eleven",
    "address": "15 148th Avenue Northeast",
    "city": "Bellevue",
    "state": "WA",
    "zip_code": "98007",
    "country": "US",
    "longitude": -122.14355,
    "latitude": 47.610113,
    "id": 3519
}, {
    "name": "Forest Lane 7-Eleven",
    "address": "3425 Forest Lane",
    "city": "Garland",
    "state": "TX",
    "zip_code": "75042",
    "country": "US",
    "longitude": -96.682461,
    "latitude": 32.909714,
    "id": 3629
}, {
    "name": "Sunset Boulevard 7-Eleven",
    "address": "7040 Sunset Boulevard",
    "city": "Hollywood",
    "state": "CA",
    "zip_code": "90028",
    "country": "US",
    "longitude": -118.343081,
    "latitude": 34.097782,
    "id": 3699
}, {
    "name": "Som Center Road 7-Eleven",
    "address": "2481 Som Center Road",
    "city": "Willoughby",
    "state": "OH",
    "zip_code": "44094",
    "country": "US",
    "longitude": -81.439109,
    "latitude": 41.604097,
    "id": 3575
}, {
    "name": "Salem Street 7-Eleven",
    "address": "169 Salem Street",
    "city": "Malden",
    "state": "MA",
    "zip_code": "02148",
    "country": "US",
    "longitude": -71.061007,
    "latitude": 42.429216,
    "id": 3549
}, {
    "name": "Broadmoor Road 7-Eleven",
    "address": "8360 Broadmoor Road",
    "city": "Mentor",
    "state": "OH",
    "zip_code": "44060",
    "country": "US",
    "longitude": -81.376382,
    "latitude": 41.64336,
    "id": 3578
}, {
    "name": "Snow Road 7-Eleven",
    "address": "11690 Snow Road",
    "city": "Cleveland",
    "state": "OH",
    "zip_code": "44130",
    "country": "US",
    "longitude": -81.768394,
    "latitude": 41.405411,
    "id": 3569
}, {
    "name": "South State Street 7-Eleven",
    "address": "535 South State Street",
    "city": "Chicago",
    "state": "IL",
    "zip_code": "60605",
    "country": "US",
    "longitude": -87.62729,
    "latitude": 41.874694,
    "id": 3449
}, {
    "name": "West Taylor Street 7-Eleven",
    "address": "1524 West Taylor Street",
    "city": "Chicago",
    "state": "IL",
    "zip_code": "60607",
    "country": "US",
    "longitude": -87.665059,
    "latitude": 41.869419,
    "id": 3454
}, {
    "name": "N. Vine St. 7-Eleven",
    "address": "904 N. Vine St.",
    "city": "Los Angeles",
    "state": "CA",
    "zip_code": "90038",
    "country": "US",
    "longitude": -118.326121,
    "latitude": 34.087329,
    "id": 3707
}, {
    "name": "South Parker Street 7-Eleven",
    "address": "951 South Parker Street",
    "city": "Olathe",
    "state": "KS",
    "zip_code": "66061",
    "country": "US",
    "longitude": -94.834862,
    "latitude": 38.869391,
    "id": 3753
}, {
    "name": "Preston Road 7-Eleven",
    "address": "11803 Preston Road",
    "city": "Dallas",
    "state": "TX",
    "zip_code": "75230",
    "country": "US",
    "longitude": -96.804331,
    "latitude": 32.909968,
    "id": 3597
}, {
    "name": "Jupiter Road 7-Eleven",
    "address": "2417 Jupiter Road",
    "city": "Plano",
    "state": "TX",
    "zip_code": "75074",
    "country": "US",
    "longitude": -96.682254,
    "latitude": 33.030948,
    "id": 3622
}, {
    "name": "Lincoln Boulevard 7-Eleven",
    "address": "1516 Lincoln Boulevard",
    "city": "Venice",
    "state": "CA",
    "zip_code": "90291",
    "country": "US",
    "longitude": -118.45929,
    "latitude": 33.997596,
    "id": 3668
}, {
    "name": "Harbison Avenue 7-Eleven",
    "address": "5231 Harbison Avenue",
    "city": "Philadelphia",
    "state": "PA",
    "zip_code": "19124",
    "country": "US",
    "longitude": -75.06843,
    "latitude": 40.013132,
    "id": 3735
}, {
    "name": "South State Street #720 7-Eleven",
    "address": "3201 South State Street #720",
    "city": "Chicago",
    "state": "IL",
    "zip_code": "60616",
    "country": "US",
    "longitude": -87.626167,
    "latitude": 41.835275,
    "id": 3470
}, {
    "name": "West 55th Street 7-Eleven",
    "address": "4353 West 55th Street",
    "city": "Chicago",
    "state": "IL",
    "zip_code": "60632",
    "country": "US",
    "longitude": -87.732521,
    "latitude": 41.792768,
    "id": 3488
}, {
    "name": "South Mur-Len Road 7-Eleven",
    "address": "13901 South Mur-Len Road",
    "city": "Olathe",
    "state": "KS",
    "zip_code": "66062",
    "country": "US",
    "longitude": -94.778869,
    "latitude": 38.875081,
    "id": 3748
}, {
    "name": "North Glenoaks Boulevard 7-Eleven",
    "address": "600 North Glenoaks Boulevard",
    "city": "Burbank",
    "state": "CA",
    "zip_code": "91502",
    "country": "US",
    "longitude": -118.311074,
    "latitude": 34.187135,
    "id": 3691
}, {
    "name": "West 63rd Street 7-Eleven",
    "address": "4500 West 63rd Street",
    "city": "Chicago",
    "state": "IL",
    "zip_code": "60629",
    "country": "US",
    "longitude": -87.735244,
    "latitude": 41.778905,
    "id": 3502
}, {
    "name": "Hillcrest Avenue 7-Eleven",
    "address": "6229 Hillcrest Avenue",
    "city": "Dallas",
    "state": "TX",
    "zip_code": "75205",
    "country": "US",
    "longitude": -96.787397,
    "latitude": 32.842673,
    "id": 3605
}, {
    "name": "Sunset Boulevard 7-Eleven",
    "address": "6660 Sunset Boulevard",
    "city": "Los Angeles",
    "state": "CA",
    "zip_code": "90028",
    "country": "US",
    "longitude": -118.335471,
    "latitude": 34.097382,
    "id": 3702
}, {
    "name": "North Elston Avenue 7-Eleven",
    "address": "1942 North Elston Avenue",
    "city": "Chicago",
    "state": "IL",
    "zip_code": "60642",
    "country": "US",
    "longitude": -87.667462,
    "latitude": 41.917467,
    "id": 3490
}, {
    "name": "East Illinois Avenue 7-Eleven",
    "address": "1410 East Illinois Avenue",
    "city": "Dallas",
    "state": "TX",
    "zip_code": "75216",
    "country": "US",
    "longitude": -96.804288,
    "latitude": 32.719625,
    "id": 3634
}, {
    "name": "Boston Road 7-Eleven",
    "address": "826 Boston Road",
    "city": "Billerica",
    "state": "MA",
    "zip_code": "01821",
    "country": "US",
    "longitude": -71.229003,
    "latitude": 42.531519,
    "id": 3565
}, {
    "name": "North Clark Street 7-Eleven",
    "address": "2264 North Clark Street",
    "city": "Chicago",
    "state": "IL",
    "zip_code": "60614",
    "country": "US",
    "longitude": -87.639595,
    "latitude": 41.923631,
    "id": 3468
}, {
    "name": "Commercial Street 7-Eleven",
    "address": "1453 Commercial Street",
    "city": "East Weymouth",
    "state": "MA",
    "zip_code": "02189",
    "country": "US",
    "longitude": -70.922799,
    "latitude": 42.215022,
    "id": 3562
}, {
    "name": "Mount Auburn Street 7-Eleven",
    "address": "650 Mount Auburn Street",
    "city": "Watertown",
    "state": "MA",
    "zip_code": "02472",
    "country": "US",
    "longitude": -71.15772,
    "latitude": 42.371738,
    "id": 3546
}, {
    "name": "West Centinela Avenue 7-Eleven",
    "address": "5498 West Centinela Avenue",
    "city": "Los Angeles",
    "state": "CA",
    "zip_code": "90045",
    "country": "US",
    "longitude": -118.376618,
    "latitude": 33.976697,
    "id": 3700
}, {
    "name": "South Figueroa Street 7-Eleven",
    "address": "2512 South Figueroa Street",
    "city": "Los Angeles",
    "state": "CA",
    "zip_code": "90007",
    "country": "US",
    "longitude": -118.275447,
    "latitude": 34.028684,
    "id": 3666
}, {
    "name": "Chicago Avenue 7-Eleven",
    "address": "240 Chicago Avenue",
    "city": "Oak Park",
    "state": "IL",
    "zip_code": "60302",
    "country": "US",
    "longitude": -87.781898,
    "latitude": 41.894944,
    "id": 3465
}, {
    "name": "West Van Buren Street 7-Eleven",
    "address": "833 West Van Buren Street",
    "city": "Chicago",
    "state": "IL",
    "zip_code": "60607",
    "country": "US",
    "longitude": -87.648758,
    "latitude": 41.876509,
    "id": 3460
}, {
    "name": "North Dearborn Street 7-Eleven",
    "address": "1036 North Dearborn Street",
    "city": "Chicago",
    "state": "IL",
    "zip_code": "60610",
    "country": "US",
    "longitude": -87.630252,
    "latitude": 41.901641,
    "id": 3474
}, {
    "name": "Harlem Avenue 7-Eleven",
    "address": "205 Harlem Avenue",
    "city": "Forest Park",
    "state": "IL",
    "zip_code": "60130",
    "country": "US",
    "longitude": -87.805318,
    "latitude": 41.882886,
    "id": 3482
}, {
    "name": "Commerce Street 7-Eleven",
    "address": "2008 Commerce Street",
    "city": "Dallas",
    "state": "TX",
    "zip_code": "75201",
    "country": "US",
    "longitude": -96.793456,
    "latitude": 32.780802,
    "id": 3639
}, {
    "name": "Hancock Street 7-Eleven",
    "address": "363 Hancock Street",
    "city": "Quincy",
    "state": "MA",
    "zip_code": "02171",
    "country": "US",
    "longitude": -71.026904,
    "latitude": 42.274495,
    "id": 3550
}, {
    "name": "Central Expressway 7-Eleven",
    "address": "120 Central Expressway",
    "city": "Richardson",
    "state": "TX",
    "zip_code": "75080",
    "country": "US",
    "longitude": -96.735984,
    "latitude": 32.950462,
    "id": 3609
}, {
    "name": "North Franklin Street 7-Eleven",
    "address": "180 North Franklin Street",
    "city": "Chicago",
    "state": "IL",
    "zip_code": "60606",
    "country": "US",
    "longitude": -87.635582,
    "latitude": 41.885548,
    "id": 3461
}, {
    "name": "North Pulaski Road 7-Eleven",
    "address": "3559 North Pulaski Road",
    "city": "Chicago",
    "state": "IL",
    "zip_code": "60641",
    "country": "US",
    "longitude": -87.7269,
    "latitude": 41.946201,
    "id": 3485
}, {
    "name": "Berkeley Street 7-Eleven",
    "address": "55 Berkeley Street",
    "city": "Boston",
    "state": "MA",
    "zip_code": "02116",
    "country": "US",
    "longitude": -71.066598,
    "latitude": 42.35144,
    "id": 3553
}, {
    "name": "Phinney Avenue North 7-Eleven",
    "address": "5900 Phinney Avenue North",
    "city": "Seattle",
    "state": "WA",
    "zip_code": "98103",
    "country": "US",
    "longitude": -122.353865,
    "latitude": 47.672021,
    "id": 3518
}, {
    "name": "Franklin Avenue 7-Eleven",
    "address": "4650 Franklin Avenue",
    "city": "Los Angeles",
    "state": "CA",
    "zip_code": "90027",
    "country": "US",
    "longitude": -118.29137,
    "latitude": 34.105222,
    "id": 3695
}, {
    "name": "Lancaster Avenue 7-Eleven",
    "address": "3401 Lancaster Avenue",
    "city": "Philadelphia",
    "state": "PA",
    "zip_code": "19104",
    "country": "US",
    "longitude": -75.191306,
    "latitude": 39.957651,
    "id": 3724
}, {
    "name": "North Watson Road 7-Eleven",
    "address": "900 North Watson Road",
    "city": "Arlington",
    "state": "TX",
    "zip_code": "76011",
    "country": "US",
    "longitude": -97.062561,
    "latitude": 32.756982,
    "id": 3617
}, {
    "name": "North Town East Boulevard 7-Eleven",
    "address": "1041 North Town East Boulevard",
    "city": "Mesquite",
    "state": "TX",
    "zip_code": "75150",
    "country": "US",
    "longitude": -96.611411,
    "latitude": 32.811363,
    "id": 3621
}, {
    "name": "Northwest Market Street 7-Eleven",
    "address": "1550 Northwest Market Street",
    "city": "Seattle",
    "state": "WA",
    "zip_code": "98107",
    "country": "US",
    "longitude": -122.378621,
    "latitude": 47.668985,
    "id": 3516
}, {
    "name": "North Clybourn Avenue 7-Eleven",
    "address": "2181 North Clybourn Avenue",
    "city": "Chicago",
    "state": "IL",
    "zip_code": "60614",
    "country": "US",
    "longitude": -87.663442,
    "latitude": 41.921203,
    "id": 3479
}, {
    "name": "Kent Road 7-Eleven",
    "address": "3349 Kent Road",
    "city": "Stow",
    "state": "OH",
    "zip_code": "44224",
    "country": "US",
    "longitude": -81.440852,
    "latitude": 41.16005,
    "id": 3583
}, {
    "name": "Metcalf Avenue 7-Eleven",
    "address": "10701 Metcalf Avenue",
    "city": "Overland Park",
    "state": "KS",
    "zip_code": "66210",
    "country": "US",
    "longitude": -94.666656,
    "latitude": 38.933989,
    "id": 3661
}, {
    "name": "Moorpark Street 7-Eleven",
    "address": "11351 Moorpark Street",
    "city": "North Hollywood",
    "state": "CA",
    "zip_code": "91602",
    "country": "US",
    "longitude": -118.378634,
    "latitude": 34.150669,
    "id": 3713
}, {
    "name": "East 63rd Street 7-Eleven",
    "address": "319 East 63rd Street",
    "city": "Kansas City",
    "state": "MO",
    "zip_code": "64113",
    "country": "US",
    "longitude": -94.58413,
    "latitude": 39.013379,
    "id": 3657
}, {
    "name": "North Wells Street 7-Eleven",
    "address": "48 North Wells Street",
    "city": "Chicago",
    "state": "IL",
    "zip_code": "60606",
    "country": "US",
    "longitude": -87.634048,
    "latitude": 41.883059,
    "id": 3450
}, {
    "name": "East Northwest Highway 7-Eleven",
    "address": "10120 East Northwest Highway",
    "city": "Dallas",
    "state": "TX",
    "zip_code": "75238",
    "country": "US",
    "longitude": -96.711259,
    "latitude": 32.8637,
    "id": 3615
}, {
    "name": "Westwood Boulevard 7-Eleven",
    "address": "1400 Westwood Boulevard",
    "city": "Los Angeles",
    "state": "CA",
    "zip_code": "90024",
    "country": "US",
    "longitude": -118.441246,
    "latitude": 34.055263,
    "id": 3669
}, {
    "name": "North Kimball Avenue 7-Eleven",
    "address": "4346 North Kimball Avenue",
    "city": "Chicago",
    "state": "IL",
    "zip_code": "60618",
    "country": "US",
    "longitude": -87.71381,
    "latitude": 41.960808,
    "id": 3469
}, {
    "name": "East 151st Street 7-Eleven",
    "address": "2151 East 151st Street",
    "city": "Olathe",
    "state": "KS",
    "zip_code": "66062",
    "country": "US",
    "longitude": -94.780297,
    "latitude": 38.854339,
    "id": 3752
}, {
    "name": "Albion Street 7-Eleven",
    "address": "193 Albion Street",
    "city": "Wakefield",
    "state": "MA",
    "zip_code": "01880",
    "country": "US",
    "longitude": -71.076858,
    "latitude": 42.500773,
    "id": 3560
}, {
    "name": "South Kedzie Avenue 7-Eleven",
    "address": "11459 South Kedzie Avenue",
    "city": "Merrionette Park",
    "state": "IL",
    "zip_code": "60803",
    "country": "US",
    "longitude": -87.700215,
    "latitude": 41.684583,
    "id": 3495
}, {
    "name": "West Washington Boulevard 7-Eleven",
    "address": "11299 West Washington Boulevard",
    "city": "Culver City",
    "state": "CA",
    "zip_code": "90230",
    "country": "US",
    "longitude": -118.414753,
    "latitude": 34.004757,
    "id": 3671
}, {
    "name": "Sunset Boulevard 7-Eleven",
    "address": "2200 Sunset Boulevard",
    "city": "Los Angeles",
    "state": "CA",
    "zip_code": "90026",
    "country": "US",
    "longitude": -118.266296,
    "latitude": 34.077659,
    "id": 3717
}, {
    "name": "Harlem Avenue 7-Eleven",
    "address": "2600 Harlem Avenue",
    "city": "Riverside",
    "state": "IL",
    "zip_code": "60546",
    "country": "US",
    "longitude": -87.804043,
    "latitude": 41.842823,
    "id": 3492
}, {
    "name": "Ohio 14 7-Eleven",
    "address": "9202 Ohio 14",
    "city": "Streetsboro",
    "state": "OH",
    "zip_code": "44241",
    "country": "US",
    "longitude": -81.343484,
    "latitude": 41.239835,
    "id": 3582
}, {
    "name": "West Passyunk Avenue 7-Eleven",
    "address": "2301 West Passyunk Avenue",
    "city": "Philadelphia",
    "state": "PA",
    "zip_code": "19145",
    "country": "US",
    "longitude": -75.185334,
    "latitude": 39.923067,
    "id": 3729
}, {
    "name": "Santa Monica Boulevard 7-Eleven",
    "address": "4901 Santa Monica Boulevard",
    "city": "Los Angeles",
    "state": "CA",
    "zip_code": "90029",
    "country": "US",
    "longitude": -118.296325,
    "latitude": 34.091217,
    "id": 3708
}, {
    "name": "Centre Street 7-Eleven",
    "address": "451 Centre Street",
    "city": "Jamaica Plain",
    "state": "MA",
    "zip_code": "02130",
    "country": "US",
    "longitude": -71.111479,
    "latitude": 42.320331,
    "id": 3530
}, {
    "name": "West Bryn Mawr Avenue 7-Eleven",
    "address": "1055 West Bryn Mawr Avenue",
    "city": "Chicago",
    "state": "IL",
    "zip_code": "60660",
    "country": "US",
    "longitude": -87.657641,
    "latitude": 41.983472,
    "id": 3472
}, {
    "name": "Independence Avenue 7-Eleven",
    "address": "3201 Independence Avenue",
    "city": "Kansas City",
    "state": "MO",
    "zip_code": "64124",
    "country": "US",
    "longitude": -94.543609,
    "latitude": 39.105702,
    "id": 3646
}, {
    "name": "Artesia Boulevard 7-Eleven",
    "address": "3545 Artesia Boulevard",
    "city": "Torrance",
    "state": "CA",
    "zip_code": "90504",
    "country": "US",
    "longitude": -118.334779,
    "latitude": 33.87327,
    "id": 3690
}, {
    "name": "Summer Street 7-Eleven",
    "address": "50 Summer Street",
    "city": "Boston",
    "state": "MA",
    "zip_code": "02110",
    "country": "US",
    "longitude": -71.059054,
    "latitude": 42.35467,
    "id": 3548
}, {
    "name": "North Carroll Avenue 7-Eleven",
    "address": "111 North Carroll Avenue",
    "city": "Dallas",
    "state": "TX",
    "zip_code": "75226",
    "country": "US",
    "longitude": -96.768004,
    "latitude": 32.791606,
    "id": 3587
}, {
    "name": "Lincoln Boulevard 7-Eleven",
    "address": "4010 Lincoln Boulevard",
    "city": "Marina del Rey",
    "state": "CA",
    "zip_code": "90292",
    "country": "US",
    "longitude": -118.44724,
    "latitude": 33.990383,
    "id": 3701
}, {
    "name": "East Bannister Road 7-Eleven",
    "address": "8105 East Bannister Road",
    "city": "Kansas City",
    "state": "MO",
    "zip_code": "64134",
    "country": "US",
    "longitude": -94.494365,
    "latitude": 38.95134,
    "id": 3749
}, {
    "name": "North Galloway Avenue 7-Eleven",
    "address": "1803 North Galloway Avenue",
    "city": "Mesquite",
    "state": "TX",
    "zip_code": "75149",
    "country": "US",
    "longitude": -96.606589,
    "latitude": 32.786678,
    "id": 3602
}, {
    "name": "South 47th Street 7-Eleven",
    "address": "2924 South 47th Street",
    "city": "Kansas City",
    "state": "KS",
    "zip_code": "66106",
    "country": "US",
    "longitude": -94.68682,
    "latitude": 39.049101,
    "id": 3652
}, {
    "name": "Aviation Boulevard 7-Eleven",
    "address": "1535 Aviation Boulevard",
    "city": "Redondo Beach",
    "state": "CA",
    "zip_code": "90278",
    "country": "US",
    "longitude": -118.383021,
    "latitude": 33.868926,
    "id": 3721
}, {
    "name": "North Halsted Street 7-Eleven",
    "address": "2004 North Halsted Street",
    "city": "Chicago",
    "state": "IL",
    "zip_code": "60614",
    "country": "US",
    "longitude": -87.648808,
    "latitude": 41.918425,
    "id": 3501
}, {
    "name": "Wilshire Boulevard 7-Eleven",
    "address": "11656 Wilshire Boulevard",
    "city": "West Los Angeles",
    "state": "CA",
    "zip_code": "90025",
    "country": "US",
    "longitude": -118.460056,
    "latitude": 34.049639,
    "id": 3696
}, {
    "name": "North Harlem Avenue 7-Eleven",
    "address": "2759 North Harlem Avenue",
    "city": "Chicago",
    "state": "IL",
    "zip_code": "60707",
    "country": "US",
    "longitude": -87.80598,
    "latitude": 41.930549,
    "id": 3494
}, {
    "name": "University Way Northeast 7-Eleven",
    "address": "4224 University Way Northeast",
    "city": "Seattle",
    "state": "WA",
    "zip_code": "98105",
    "country": "US",
    "longitude": -122.31301,
    "latitude": 47.659082,
    "id": 3520
}, {
    "name": "East Gudgell Road 7-Eleven",
    "address": "16801 East Gudgell Road",
    "city": "Independence",
    "state": "MO",
    "zip_code": "64055",
    "country": "US",
    "longitude": -94.379235,
    "latitude": 39.071923,
    "id": 3650
}, {
    "name": "North Jupiter Road 7-Eleven",
    "address": "6418 North Jupiter Road",
    "city": "Garland",
    "state": "TX",
    "zip_code": "75044",
    "country": "US",
    "longitude": -96.682022,
    "latitude": 32.973645,
    "id": 3623
}, {
    "name": "South Kingsley Drive 7-Eleven",
    "address": "265 South Kingsley Drive",
    "city": "Los Angeles",
    "state": "CA",
    "zip_code": "90004",
    "country": "US",
    "longitude": -118.303435,
    "latitude": 34.069229,
    "id": 3680
}, {
    "name": "Santa Monica Boulevard 7-Eleven",
    "address": "10834 Santa Monica Boulevard",
    "city": "West Los Angeles",
    "state": "CA",
    "zip_code": "90025",
    "country": "US",
    "longitude": -118.435585,
    "latitude": 34.049617,
    "id": 3670
}, {
    "name": "Cottman Avenue 7-Eleven",
    "address": "1435 Cottman Avenue",
    "city": "Philadelphia",
    "state": "PA",
    "zip_code": "19111",
    "country": "US",
    "longitude": -75.075081,
    "latitude": 40.056827,
    "id": 3738
}, {
    "name": "East US Highway 40 7-Eleven",
    "address": "12333 East US Highway 40",
    "city": "Independence",
    "state": "MO",
    "zip_code": "64055",
    "country": "US",
    "longitude": -94.434341,
    "latitude": 39.042237,
    "id": 3647
}, {
    "name": "Long Lane 7-Eleven",
    "address": "639 Long Lane",
    "city": "Upper Darby",
    "state": "PA",
    "zip_code": "19082",
    "country": "US",
    "longitude": -75.261457,
    "latitude": 39.949745,
    "id": 3728
}, {
    "name": "Stone Way North 7-Eleven",
    "address": "3939 Stone Way North",
    "city": "Seattle",
    "state": "WA",
    "zip_code": "98103",
    "country": "US",
    "longitude": -122.342956,
    "latitude": 47.655099,
    "id": 3510
}, {
    "name": "West Washington Boulevard 7-Eleven",
    "address": "5900 West Washington Boulevard",
    "city": "Culver City",
    "state": "CA",
    "zip_code": "90232",
    "country": "US",
    "longitude": -118.374712,
    "latitude": 34.032087,
    "id": 3677
}, {
    "name": "Northeast Antioch Road 7-Eleven",
    "address": "4251 Northeast Antioch Road",
    "city": "Kansas City",
    "state": "MO",
    "zip_code": "64117",
    "country": "US",
    "longitude": -94.548537,
    "latitude": 39.17119,
    "id": 3654
}, {
    "name": "West Monroe Street 7-Eleven",
    "address": "954 West Monroe Street",
    "city": "Chicago",
    "state": "IL",
    "zip_code": "60607",
    "country": "US",
    "longitude": -87.651885,
    "latitude": 41.880512,
    "id": 3480
}, {
    "name": "Aurora Road 7-Eleven",
    "address": "34050 Aurora Road",
    "city": "Solon",
    "state": "OH",
    "zip_code": "44139",
    "country": "US",
    "longitude": -81.436633,
    "latitude": 41.384593,
    "id": 3573
}, {
    "name": "Prospect Street 7-Eleven",
    "address": "275 Prospect Street",
    "city": "Cambridge",
    "state": "MA",
    "zip_code": "02139",
    "country": "US",
    "longitude": -71.099349,
    "latitude": 42.37227,
    "id": 3536
}, {
    "name": "Tremont Street 7-Eleven",
    "address": "125 Tremont Street",
    "city": "Boston",
    "state": "MA",
    "zip_code": "02108",
    "country": "US",
    "longitude": -71.061847,
    "latitude": 42.356489,
    "id": 3527
}, {
    "name": "North Clark Street 7-Eleven",
    "address": "2619 North Clark Street",
    "city": "Chicago",
    "state": "IL",
    "zip_code": "60614",
    "country": "US",
    "longitude": -87.643316,
    "latitude": 41.930204,
    "id": 3467
}, {
    "name": "Rocky River Drive 7-Eleven",
    "address": "4075 Rocky River Drive",
    "city": "Cleveland",
    "state": "OH",
    "zip_code": "44135",
    "country": "US",
    "longitude": -81.818221,
    "latitude": 41.444061,
    "id": 3567
}, {
    "name": "Greenville Avenue 7-Eleven",
    "address": "6881 Greenville Avenue",
    "city": "Dallas",
    "state": "TX",
    "zip_code": "75231",
    "country": "US",
    "longitude": -96.765582,
    "latitude": 32.871545,
    "id": 3635
}, {
    "name": "South Barrington Avenue 7-Eleven",
    "address": "2541 South Barrington Avenue",
    "city": "Los Angeles",
    "state": "CA",
    "zip_code": "90064",
    "country": "US",
    "longitude": -118.443147,
    "latitude": 34.027743,
    "id": 3676
}, {
    "name": "North Akard Street 7-Eleven",
    "address": "511 North Akard Street",
    "city": "Dallas",
    "state": "TX",
    "zip_code": "75201",
    "country": "US",
    "longitude": -96.800872,
    "latitude": 32.783989,
    "id": 3619
}, {
    "name": "Custer Road 7-Eleven",
    "address": "10565 Custer Road",
    "city": "Plano",
    "state": "TX",
    "zip_code": "75025",
    "country": "US",
    "longitude": -96.732934,
    "latitude": 33.124074,
    "id": 3642
}, {
    "name": "Northwest 54th Street 7-Eleven",
    "address": "3200 Northwest 54th Street",
    "city": "Seattle",
    "state": "WA",
    "zip_code": "98107",
    "country": "US",
    "longitude": -122.398725,
    "latitude": 47.667789,
    "id": 3511
}, {
    "name": "Hancock Street 7-Eleven",
    "address": "721 Hancock Street",
    "city": "Quincy",
    "state": "MA",
    "zip_code": "02170",
    "country": "US",
    "longitude": -71.014697,
    "latitude": 42.266457,
    "id": 3551
}, {
    "name": "Hilliard Road 7-Eleven",
    "address": "16165 Hilliard Road",
    "city": "Lakewood",
    "state": "OH",
    "zip_code": "44107",
    "country": "US",
    "longitude": -81.809813,
    "latitude": 41.476358,
    "id": 3568
}, {
    "name": "Huntington Avenue 7-Eleven",
    "address": "722 Huntington Avenue",
    "city": "Boston",
    "state": "MA",
    "zip_code": "02115",
    "country": "US",
    "longitude": -71.104106,
    "latitude": 42.334138,
    "id": 3547
}, {
    "name": "Wornall Road 7-Eleven",
    "address": "8901 Wornall Road",
    "city": "Kansas City",
    "state": "MO",
    "zip_code": "64114",
    "country": "US",
    "longitude": -94.59503,
    "latitude": 38.966673,
    "id": 3746
}, {
    "name": "South Clark Street 7-Eleven",
    "address": "125 South Clark Street",
    "city": "Chicago",
    "state": "IL",
    "zip_code": "60603",
    "country": "US",
    "longitude": -87.630606,
    "latitude": 41.879852,
    "id": 3447
}, {
    "name": "San Vicente 7-Eleven",
    "address": "5600 San Vicente",
    "city": "Los Angeles",
    "state": "CA",
    "zip_code": "90019",
    "country": "US",
    "longitude": -118.355054,
    "latitude": 34.053661,
    "id": 3674
}, {
    "name": "Garfield Avenue 7-Eleven",
    "address": "12100 Garfield Avenue",
    "city": "South Gate",
    "state": "CA",
    "zip_code": "90280",
    "country": "US",
    "longitude": -118.168487,
    "latitude": 33.916789,
    "id": 3722
}, {
    "name": "Center Street 7-Eleven",
    "address": "6709 Center Street",
    "city": "Mentor",
    "state": "OH",
    "zip_code": "44060",
    "country": "US",
    "longitude": -81.338598,
    "latitude": 41.688667,
    "id": 3580
}, {
    "name": "Venice Boulevard 7-Eleven",
    "address": "12403 Venice Boulevard",
    "city": "Los Angeles",
    "state": "CA",
    "zip_code": "90066",
    "country": "US",
    "longitude": -118.434099,
    "latitude": 34.003951,
    "id": 3684
}, {
    "name": "West Park Boulevard 7-Eleven",
    "address": "5940 West Park Boulevard",
    "city": "Plano",
    "state": "TX",
    "zip_code": "75093",
    "country": "US",
    "longitude": -96.828411,
    "latitude": 33.027417,
    "id": 3607
}, {
    "name": "North Galloway Avenue 7-Eleven",
    "address": "2318 North Galloway Avenue",
    "city": "Mesquite",
    "state": "TX",
    "zip_code": "75150",
    "country": "US",
    "longitude": -96.6112,
    "latitude": 32.797117,
    "id": 3611
}, {
    "name": "West 15th Street 7-Eleven",
    "address": "2101 West 15th Street",
    "city": "Plano",
    "state": "TX",
    "zip_code": "75075",
    "country": "US",
    "longitude": -96.734328,
    "latitude": 33.019996,
    "id": 3632
}, {
    "name": "Church Lane 7-Eleven",
    "address": "501 Church Lane",
    "city": "Yeadon",
    "state": "PA",
    "zip_code": "19050",
    "country": "US",
    "longitude": -75.254625,
    "latitude": 39.937958,
    "id": 3727
}, {
    "name": "E Broadway 7-Eleven",
    "address": "673 E Broadway",
    "city": "South Boston",
    "state": "MA",
    "zip_code": "02127",
    "country": "US",
    "longitude": -71.037486,
    "latitude": 42.335431,
    "id": 3541
}, {
    "name": "Sand Point Way Northeast 7-Eleven",
    "address": "7215 Sand Point Way Northeast",
    "city": "Seattle",
    "state": "WA",
    "zip_code": "98115",
    "country": "US",
    "longitude": -122.264097,
    "latitude": 47.681295,
    "id": 3522
}, {
    "name": "East Colorado Boulevard 7-Eleven",
    "address": "225 East Colorado Boulevard",
    "city": "Dallas",
    "state": "TX",
    "zip_code": "75203",
    "country": "US",
    "longitude": -96.820556,
    "latitude": 32.759141,
    "id": 3592
}, {
    "name": "North Clark Street 7-Eleven",
    "address": "4116 North Clark Street",
    "city": "Chicago",
    "state": "IL",
    "zip_code": "60613",
    "country": "US",
    "longitude": -87.663973,
    "latitude": 41.956853,
    "id": 3464
}, {
    "name": "North La Cienega Boulevard 7-Eleven",
    "address": "1100 North La Cienega Boulevard",
    "city": "West Hollywood",
    "state": "CA",
    "zip_code": "90069",
    "country": "US",
    "longitude": -118.375852,
    "latitude": 34.090824,
    "id": 3667
}, {
    "name": "Washington Street 7-Eleven",
    "address": "1747 Washington Street",
    "city": "Boston",
    "state": "MA",
    "zip_code": "02118",
    "country": "US",
    "longitude": -71.077028,
    "latitude": 42.336781,
    "id": 3540
}, {
    "name": "West Newton Street 7-Eleven",
    "address": "252 West Newton Street",
    "city": "Boston",
    "state": "MA",
    "zip_code": "02116",
    "country": "US",
    "longitude": -71.081123,
    "latitude": 42.3448,
    "id": 3544
}, {
    "name": "Burbank Boulevard 7-Eleven",
    "address": "11111 Burbank Boulevard",
    "city": "North Hollywood",
    "state": "CA",
    "zip_code": "91601",
    "country": "US",
    "longitude": -118.372796,
    "latitude": 34.172459,
    "id": 3715
}, {
    "name": "West Lake Street 7-Eleven",
    "address": "567 West Lake Street",
    "city": "Chicago",
    "state": "IL",
    "zip_code": "60661",
    "country": "US",
    "longitude": -87.642544,
    "latitude": 41.885498,
    "id": 3458
}, {
    "name": "Hanover Street 7-Eleven",
    "address": "464 Hanover Street",
    "city": "Boston",
    "state": "MA",
    "zip_code": "02113",
    "country": "US",
    "longitude": -71.052743,
    "latitude": 42.36708,
    "id": 3531
}, {
    "name": "Wornall Road 7-Eleven",
    "address": "8901 Wornall Road",
    "city": "Kansas City",
    "state": "MO",
    "zip_code": "64114",
    "country": "US",
    "longitude": -94.59503,
    "latitude": 38.966673,
    "id": 3656
}, {
    "name": "Broadway 7-Eleven",
    "address": "582 Broadway",
    "city": "Somerville",
    "state": "MA",
    "zip_code": "02145",
    "country": "US",
    "longitude": -71.10842,
    "latitude": 42.398341,
    "id": 3539
}, {
    "name": "Auburn Road 7-Eleven",
    "address": "7515 Auburn Road",
    "city": "Painesville",
    "state": "OH",
    "zip_code": "44077",
    "country": "US",
    "longitude": -81.244964,
    "latitude": 41.665913,
    "id": 3584
}, {
    "name": "East Ohio Street 7-Eleven",
    "address": "201 East Ohio Street",
    "city": "Chicago",
    "state": "IL",
    "zip_code": "60611",
    "country": "US",
    "longitude": -87.62244,
    "latitude": 41.892393,
    "id": 3455
}, {
    "name": "East 23rd Street South 7-Eleven",
    "address": "11001 East 23rd Street South",
    "city": "Independence",
    "state": "MO",
    "zip_code": "64052",
    "country": "US",
    "longitude": -94.449057,
    "latitude": 39.080073,
    "id": 3649
}, {
    "name": "Kensington Avenue 7-Eleven",
    "address": "3359 Kensington Avenue",
    "city": "Philadelphia",
    "state": "PA",
    "zip_code": "19134",
    "country": "US",
    "longitude": -75.108803,
    "latitude": 39.998691,
    "id": 3736
}, {
    "name": "East Luzerne Street 7-Eleven",
    "address": "1190 East Luzerne Street",
    "city": "Philadelphia",
    "state": "PA",
    "zip_code": "19124",
    "country": "US",
    "longitude": -75.105294,
    "latitude": 40.00778,
    "id": 3737
}, {
    "name": "North Mascher Street 7-Eleven",
    "address": "4701 North Mascher Street",
    "city": "Philadelphia",
    "state": "PA",
    "zip_code": "19120",
    "country": "US",
    "longitude": -75.125795,
    "latitude": 40.021983,
    "id": 3730
}, {
    "name": "Northwest Leary Way 7-Eleven",
    "address": "999 Northwest Leary Way",
    "city": "Seattle",
    "state": "WA",
    "zip_code": "98107",
    "country": "US",
    "longitude": -122.369998,
    "latitude": 47.663222,
    "id": 3521
}, {
    "name": "West Campbell Road #200 7-Eleven",
    "address": "377 West Campbell Road #200",
    "city": "Richardson",
    "state": "TX",
    "zip_code": "75080",
    "country": "US",
    "longitude": -96.723191,
    "latitude": 32.975058,
    "id": 3631
}, {
    "name": "North Lincoln Avenue 7-Eleven",
    "address": "2600 North Lincoln Avenue",
    "city": "Chicago",
    "state": "IL",
    "zip_code": "60614",
    "country": "US",
    "longitude": -87.654639,
    "latitude": 41.92922,
    "id": 3471
}, {
    "name": "North Cahuenga Boulevard 7-Eleven",
    "address": "1810 North Cahuenga Boulevard",
    "city": "Los Angeles",
    "state": "CA",
    "zip_code": "90028",
    "country": "US",
    "longitude": -118.32961,
    "latitude": 34.104449,
    "id": 3681
}, {
    "name": "East Madison Street 7-Eleven",
    "address": "1522 East Madison Street",
    "city": "Seattle",
    "state": "WA",
    "zip_code": "98122",
    "country": "US",
    "longitude": -122.311898,
    "latitude": 47.615092,
    "id": 3507
}, {
    "name": "Hyperion Avenue 7-Eleven",
    "address": "2900 Hyperion Avenue",
    "city": "Los Angeles",
    "state": "CA",
    "zip_code": "90027",
    "country": "US",
    "longitude": -118.270724,
    "latitude": 34.109183,
    "id": 3703
}, {
    "name": "West 87th Street 7-Eleven",
    "address": "5560 West 87th Street",
    "city": "Burbank",
    "state": "IL",
    "zip_code": "60459",
    "country": "US",
    "longitude": -87.75988,
    "latitude": 41.734667,
    "id": 3506
}, {
    "name": "Lakeland Boulevard 7-Eleven",
    "address": "30502 Lakeland Boulevard",
    "city": "Wickliffe",
    "state": "OH",
    "zip_code": "44092",
    "country": "US",
    "longitude": -81.458536,
    "latitude": 41.623391,
    "id": 3572
}, {
    "name": "Wilshire Boulevard 7-Eleven",
    "address": "630 Wilshire Boulevard",
    "city": "Santa Monica",
    "state": "CA",
    "zip_code": "90401",
    "country": "US",
    "longitude": -118.495308,
    "latitude": 34.02104,
    "id": 3694
}, {
    "name": "Roscoe Boulevard 7-Eleven",
    "address": "18916 Roscoe Boulevard",
    "city": "Northridge",
    "state": "CA",
    "zip_code": "91324",
    "country": "US",
    "longitude": -118.545628,
    "latitude": 34.220178,
    "id": 3688
}, {
    "name": "Gillham Road 7-Eleven",
    "address": "3150 Gillham Road",
    "city": "Kansas City",
    "state": "MO",
    "zip_code": "64109",
    "country": "US",
    "longitude": -94.577793,
    "latitude": 39.069537,
    "id": 3645
}, {
    "name": "South Robertson Boulevard 7-Eleven",
    "address": "1665 South Robertson Boulevard",
    "city": "Los Angeles",
    "state": "CA",
    "zip_code": "90035",
    "country": "US",
    "longitude": -118.385851,
    "latitude": 34.049117,
    "id": 3679
}, {
    "name": "Chillicothe Road 7-Eleven",
    "address": "17644 Chillicothe Road",
    "city": "Chagrin Falls",
    "state": "OH",
    "zip_code": "44023",
    "country": "US",
    "longitude": -81.339781,
    "latitude": 41.389456,
    "id": 3579
}, {
    "name": "Commercial Street 7-Eleven",
    "address": "51 Commercial Street",
    "city": "Braintree",
    "state": "MA",
    "zip_code": "02184",
    "country": "US",
    "longitude": -70.969768,
    "latitude": 42.221156,
    "id": 3557
}, {
    "name": "South Mur-Len Road 7-Eleven",
    "address": "13901 South Mur-Len Road",
    "city": "Olathe",
    "state": "KS",
    "zip_code": "66062",
    "country": "US",
    "longitude": -94.778869,
    "latitude": 38.875081,
    "id": 3658
}]